{"cuisineTypes":["Italiana","Asiatica","Nord Americana","Africana","Caraibica","Sud Americana","Nord Europea","Mediterranea","Medio Orientale","Vegana","Fast Food","Pizzeria"],"restaurants":[{"name":"Bella Napoli","place":"Viale Verona 5 Trento","photo":"/MealBoss/media/images/food-pizza-restaurant-eating.jpg","descr": "Pizza napoletana di qualità con cottura a legna","coords":{"lng":11.120159,"lat":46.069419}},{"name":"Cinese Party","place":"Corso 3 Novembre 23 Trento","photo":"/MealBoss/media/images/home_restaurant.jpg","descr":"Cucina cinese cucinata da un vero chef cinese qualificato alla scuola più difficile di Pechino","coords":{"lng":11.118239,"lat":46.066576}},{"name":"Zushi","place":"Piazza Venezia 9 Trento","photo":"/MealBoss/media/images/menu-restaurant-vintage-table.jpg","descr":"Sushi e ALL YOU CAN EAT a pranzo e cena","coords":{"lng":11.123346,"lat":46.064834}},
        {"name":"Rosa d'oro",
            "place": "Piazza Santa Maria Maggiore 21 Trento",
            "photo": "/MealBoss/media/images/menu-restaurant-vintage-table.jpg",
            "descr":"Piatti trentini, pizza e dolci casarecci serviti in sale semplici con arredi di legno in stile bavarese.",
            "coords":{
                "lat": 46.0686385,
                "lng": 11.119460900000036
            }
        },
        {
            "name": "Pazzi per la pizza",
            "place": "Via Verona 18 Trento",
            "photo": "/MealBoss/media/images/pexels-photo-221143.jpeg",
            "descr": "Pizza meravigliosa a un prezzo basso",
            "coords":{
                "lat": 46.06483428,
                "lng": 11.12334609
            }
        },
        {
            "name": "Trattoria Ristorante Orso Grigio",
            "place": "Via degli Orti 19 Trento",
            "photo": "/MealBoss/media/images/restaurant-carousel-1.jpg",
            "descr": "Canederli e brasato al Teroldego in un ristorante familiare all*interno di un ex teatro con giardino estivo.",
            "coords":{
                "lat": 46.0655176,
                "lng": 11.122614099999964
            }
        },
        {
            "name": "Trattoria al mercato",
            "place": "Piazza Garzetti Giambattista 15 Trento",
            "photo": "/MealBoss/media/images/restswag.jpeg",
            "descr": "Trattoria trentina con solo piatti tipici",
            "coords":{
                "lat": 46.06585,
                "lng": 11.124009999999998
            }
        },
        {
            "name": "Ristorante al Tino",
            "place": "Via SS Trinità 10 Trento",
            "photo": "/MealBoss/media/images/ristoclass.jpeg",
            "descr": "Buontà trentine e pizza a volontà",
            "coords":{
                "lat": 46.04325,
                "lng": 10.98416999999995
            }
        },
        {
            "name": "Trattoria Piedicastello",
            "place": "Piazza di Piedicastello 10 Trento",
            "photo": "/MealBoss/media/images/ristocool.jpeg",
            "descr": "Piatti trentini e non solo, tutto materiale fresco di stagione",
            "coords":{
                "lat": 46.0710589,
                "lng": 11.114490799999999
            }
        },
        {
            "name": "Pizzeria da Albert",
            "place": "Via Bernardino Bomporto 2 Trento",
            "photo": "/MealBoss/media/images/ristovegan.jpeg",
            "descr": "Birre artigianali e pizze creative proposte in un piccolo e movimentato locale dall*atmosfera informale.",
            "coords":{
                "lat": 46.0651512,
                "lng": 11.117452700000058
            }
        }
        ]}